name,clasificar,middle clasificar,code,small clasificar,addr,long,lat
북경짬뽕,음식,중식,Q02A00,중국음식/중국집,부산광역시 금정구 부산대학로 61,129.084581915373,35.2313580508101
대성각,음식,중식,Q02A00,중국음식/중국집,부산광역시 금정구 부산대학로 60,129.084915766746,35.2316795553737
사래향황궁쟁반,음식,중식,Q02A00,중국음식/중국집,부산광역시 금정구 부산대학로49번길 52,129.085210133072,35.229035875686606
짬뽕상회,음식,중식,Q02A00,중국음식/중국집,부산광역시 금정구 부산대학로38번길 9,129.087179520272,35.2317313542055
샤오시안,음식,중식,Q02A00,중국음식/중국집,부산광역시 금정구 부산대학로50번길 16,129.08629506779698,35.232135901652796
싸래향,음식,중식,Q02A00,중국음식/중국집,부산광역시 금정구 부산대학로49번길 52,129.085210133072,35.229035875686606
아리산,음식,중식,Q02A00,중국음식/중국집,부산광역시 금정구 금정로68번길 31-6,129.088419345724,35.2307917918991
라쿵푸마라탕,음식,중식,Q02A00,중국음식/중국집,부산광역시 금정구 금정로68번길 12-4,129.087117426997,35.2303708298373
홍보석식당,음식,중식,Q02A00,중국음식/중국집,부산광역시 금정구 금강로 256-7,129.08547687247,35.230917366471296
이미담짬뽕,음식,중식,Q02A00,중국음식/중국집,부산광역시 금정구 금강로 254-1,129.085112229474,35.2307583876866
남영각,음식,중식,Q02A00,중국음식/중국집,부산광역시 금정구 금강로321번길 2,129.086435169093,35.236875894707396
사천관,음식,중식,Q02A00,중국음식/중국집,부산광역시 금정구 금강로321번길 60,129.083262742441,35.2370755915112
만사성,음식,중식,Q02A00,중국음식/중국집,부산광역시 금정구 금강로321번길 51,129.083666676008,35.2368826861584
우리집중국전통가정요리,음식,중식,Q02A00,중국음식/중국집,부산광역시 금정구 금강로321번길 60,129.083262742441,35.2370755915112
플라잉프라이,음식,양식,Q06A01,정통양식/경양식,부산광역시 금정구 부산대학로38번길 40,129.087722893855,35.2329343198242
크로스로드,음식,양식,Q06A01,정통양식/경양식,부산광역시 금정구 부산대학로50번길 37,129.086295857986,35.233019245699
노스에스프레소,음식,양식,Q06A01,정통양식/경양식,부산광역시 금정구 부산대학로63번길 30,129.083952643186,35.230300060202396
수타생왕돈까스,음식,양식,Q06A02,돈가스전문점,부산광역시 금정구 부산대학로64번길 32,129.084811855777,35.2329514309435
자스민스노우펙토리본점,음식,양식,Q06A01,정통양식/경양식,부산광역시 금정구 부산대학로64번길 6,129.0844343708,35.231828089869396
시디,음식,양식,Q06A01,정통양식/경양식,부산광역시 금정구 부산대학로50번길 13,129.085985460202,35.2319854454526
헤이지,음식,양식,Q06A01,정통양식/경양식,부산광역시 금정구 부산대학로49번길 16,129.085648659333,35.2306183707379
어웨이크,음식,양식,Q06A01,정통양식/경양식,부산광역시 금정구 부산대학로63번길 46-4,129.08386952014098,35.2298320872955
애슐리,음식,양식,Q06A05,패밀리레스토랑,부산광역시 금정구 부산대학로63번길 2,129.083855791079,35.232103685788005
리미니,음식,양식,Q06A01,정통양식/경양식,부산광역시 금정구 부산대학로63번길 2,129.083855791079,35.232103685788005
동경생돈까스네,음식,양식,Q06A02,돈가스전문점,부산광역시 금정구 부산대학로64번길 24,129.084678360922,35.2328264342684
더다락,음식,양식,Q06A01,정통양식/경양식,부산광역시 금정구 부산대학로 60,129.084915766746,35.2316795553737
카페머지,음식,양식,Q06A01,정통양식/경양식,부산광역시 금정구 부산대학로50번길 49,129.0864020495,35.233568133563
시어링&스터프,음식,양식,Q06A01,정통양식/경양식,부산광역시 금정구 부산대학로49번길 52,129.085210133072,35.229035875686606
돈까스하우스,음식,양식,Q06A02,돈가스전문점,부산광역시 금정구 부산대학로 10,129.089998993407,35.2330851062241
하와이얌,음식,양식,Q06A01,정통양식/경양식,부산광역시 금정구 부산대학로63번길 2,129.083846844508,35.2322570003316
제멜리아,음식,양식,Q06A01,정통양식/경양식,부산광역시 금정구 부산대학로49번길 42-1,129.085140084993,35.2295502898688
천탁,음식,양식,Q06A01,정통양식/경양식,부산광역시 금정구 부산대학로50번길 12,129.086203467627,35.2318572962606
내가찜한닭,음식,양식,Q06A01,정통양식/경양식,부산광역시 금정구 부산대학로 57,129.0849329358,35.2313188498821
오사카함박스테이크,음식,양식,Q06A08,스테이크전문점,부산광역시 금정구 부산대학로64번길 14-3,129.084681667291,35.232249522155705
장전하회,음식,양식,Q06A01,정통양식/경양식,부산광역시 금정구 부산대학로64번길 142,129.08621721864202,35.237833311599005
펠로,음식,양식,Q06A01,정통양식/경양식,부산광역시 금정구 부산대학로63번길 48,129.083790473345,35.2296705467891
롤링파스타,음식,양식,Q06A04,스파게티전문점,부산광역시 금정구 부산대학로64번길 34,129.084856994117,35.233041164266794
몽크,음식,양식,Q06A01,정통양식/경양식,부산광역시 금정구 금정로 90-1,129.08708133875402,35.232606573347
리원,음식,양식,Q06A01,정통양식/경양식,부산광역시 금정구 금정로91번길 8,129.086526053993,35.232981124401
17테이블,음식,양식,Q06A01,정통양식/경양식,부산광역시 금정구 금정로60번길 20,129.087304922081,35.229602973629106
BEANS,음식,양식,Q06A01,정통양식/경양식,부산광역시 금정구 금정로 59-7,129.085815761575,35.2299678789269
인터플레이,음식,양식,Q06A01,정통양식/경양식,부산광역시 금정구 금정로 89,129.0867299534,35.232618742457205
소사,음식,양식,Q06A01,정통양식/경양식,부산광역시 금정구 금정로 83,129.08661385826798,35.2321510678006
타지마할,음식,양식,Q06A01,정통양식/경양식,부산광역시 금정구 금정로 59-8,129.085807299165,35.2301572444538
봉다,음식,양식,Q06A01,정통양식/경양식,부산광역시 금정구 금정로91번길 8,129.086526053993,35.232981124401
노스부산대,음식,양식,Q06A01,정통양식/경양식,부산광역시 금정구 금정로 80,129.08692627730198,35.2316885595881
빈스,음식,양식,Q06A01,정통양식/경양식,부산광역시 금정구 금정로 59-7,129.085815761575,35.2299678789269
노스부산대사거리점,음식,양식,Q06A01,정통양식/경양식,부산광역시 금정구 금정로 80,129.08692627730198,35.2316885595881
구르메키친,음식,양식,Q06A01,정통양식/경양식,부산광역시 금정구 금정로60번길 23-8,129.08762923587,35.2300327219113
에픽키친,음식,양식,Q06A01,정통양식/경양식,부산광역시 금정구 금정로 62-1,129.086599004237,35.230213236547996
"맛있는불고기,제임스",음식,양식,Q06A01,정통양식/경양식,부산광역시 금정구 금정로 92,129.087115735293,35.2327144298569
티엠스퀘어엠박스,음식,양식,Q06A01,정통양식/경양식,부산광역시 금정구 금정로 94,129.087261060014,35.2329024140501
키햐아,음식,양식,Q06A01,정통양식/경양식,부산광역시 금정구 금정로91번길 8,129.086526053993,35.232981124401
메이드,음식,양식,Q06A01,정통양식/경양식,부산광역시 금정구 금정로60번길 9,129.087023181348,35.2298939453708
뉴숯불바베큐,음식,양식,Q06A06,바베큐전문,부산광역시 금정구 금강로335번길 47,129.08374421602,35.2377563288229
비바,음식,양식,Q06A01,정통양식/경양식,부산광역시 금정구 금강로 286,129.085874064162,35.2335187886856
모모,음식,양식,Q06A01,정통양식/경양식,부산광역시 금정구 금강로321번길 72,129.08258166216999,35.237081685300005
달미꼬꼬,음식,양식,Q06A01,정통양식/경양식,부산광역시 금정구 금강로 255-4,129.084808628177,35.2310585640871
리멘시타LIMENSITA,음식,양식,Q06A01,정통양식/경양식,부산광역시 금정구 금강로 254,129.085077956474,35.2306595432254
카페레몬테이블,음식,양식,Q06A01,정통양식/경양식,부산광역시 금정구 금강로 250,129.085007730756,35.2303356762416
베이스먼트,음식,양식,Q06A01,정통양식/경양식,부산광역시 금정구 금강로 276,129.08559830426,35.2326108697817
에르드뻬뜨,음식,양식,Q06A01,정통양식/경양식,부산광역시 금정구 금강로279번길 22,129.084512803752,35.23359408974
호박넝쿨,음식,양식,Q06A01,정통양식/경양식,부산광역시 금정구 금강로 329-2,129.086355460124,35.237489547235704
마이플레이스,음식,양식,Q06A01,정통양식/경양식,부산광역시 금정구 금강로321번길 68,129.082801605074,35.2370977454052
이쯔모,음식,양식,Q06A01,정통양식/경양식,부산광역시 금정구 금강로 256-1,129.085180895752,35.2309650892851
모노클앤제이,음식,양식,Q06A01,정통양식/경양식,부산광역시 금정구 금강로279번길 81-12,129.083102801715,35.2357880516644
토레델라고,음식,양식,Q06A01,정통양식/경양식,부산광역시 금정구 금강로 253-1,129.084816253094,35.2308061096034
맛나는돈까스,음식,양식,Q06A01,정통양식/경양식,부산광역시 금정구 금강로321번길 57,129.08342500299102,35.2368848497053
송군네돈까스,음식,양식,Q06A02,돈가스전문점,부산광역시 금정구 금강로 251-1,129.084780540737,35.23059911245829
하이트맴버경양식,음식,양식,Q06A01,정통양식/경양식,부산광역시 금정구 금강로335번길 55,129.083447853859,35.237777009683796
송군네,음식,양식,Q06A02,돈가스전문점,부산광역시 금정구 금강로 271-4,129.085256222611,35.2324967581355
바인,음식,양식,Q06A01,정통양식/경양식,부산광역시 금정구 금강로 247-7,129.08428169093798,35.230261057959105
순,음식,양식,Q06A01,정통양식/경양식,부산광역시 금정구 금강로321번길 15,129.085675874195,35.2367835563484
리골레토시카고피자,음식,양식,Q06A01,정통양식/경양식,부산광역시 금정구 금강로 251-1,129.084780540737,35.23059911245829
사계절스파게티,음식,양식,Q06A01,정통양식/경양식,부산광역시 금정구 금강로 284,129.085784385293,35.2333843863877
부산대스테이크하우스,음식,양식,Q06A08,스테이크전문점,부산광역시 금정구 금강로 251,129.084746268209,35.230500267892104
심심푸리,음식,양식,Q06A01,정통양식/경양식,부산광역시 금정구 금강로 271,129.085187074642,35.2322540058079
토흐,음식,양식,Q06A01,정통양식/경양식,부산광역시 금정구 금강로 295-1,129.085766803762,35.234538308664604
이스탄불,음식,양식,Q06A01,정통양식/경양식,부산광역시 금정구 장전로12번길 56,129.088629881311,35.2301048507085
명동돈까스,음식,양식,Q06A02,돈가스전문점,부산광역시 금정구 장전로 52-1,129.083603383031,35.2296451803944
인디키친,음식,양식,Q06A01,정통양식/경양식,부산광역시 금정구 장전로12번길 50,129.088483956737,35.22987180450829
25디셈브리스,음식,양식,Q06A01,정통양식/경양식,부산광역시 금정구 장전로12번길 34,129.088167253677,35.229189604004205
설어정,음식,양식,Q06A07,기타전문서양음식점,부산광역시 금정구 장전로12번길 19,129.087722116271,35.2287609428812
살롱드보네,음식,제과제빵떡케익,Q08A01,제과점,부산광역시 금정구 부산대학로63번길 30,129.083952643186,35.230300060202396
네로크레페,음식,제과제빵떡케익,Q08A01,제과점,부산광역시 금정구 부산대학로63번길 2,129.083855791079,35.232103685788005
파리바게뜨,음식,제과제빵떡케익,Q08A01,제과점,부산광역시 금정구 부산대학로 58,129.085069428758,35.231669164195296
모구모구,음식,제과제빵떡케익,Q08A01,제과점,부산광역시 금정구 부산대학로64번길 133,129.08586028481702,35.2374308942836
더크로와상,음식,제과제빵떡케익,Q08A01,제과점,부산광역시 금정구 부산대학로 60-1,129.084784433492,35.231716787618
땡초떡볶이,음식,제과제빵떡케익,Q08A04,떡/한과집,부산광역시 금정구 금강로321번길 62,129.083141426348,35.2370406221008
금정떡백화점,음식,제과제빵떡케익,Q08A01,제과점,부산광역시 금정구 금강로335번길 21,129.085260900924,35.2377968214424
빠나미,음식,제과제빵떡케익,Q08A01,제과점,부산광역시 금정구 금강로 264,129.08533221475201,35.2316037116677
니다나과자점,음식,제과제빵떡케익,Q08A01,제과점,부산광역시 금정구 금강로321번길 35,129.084633367817,35.236874027147
땡초치킨,음식,닭/오리요리,Q05A08,후라이드/양념치킨,부산광역시 금정구 부산대학로49번길 22,129.085568407633,35.2303667043493
도도bar,음식,닭/오리요리,Q05A08,후라이드/양념치킨,부산광역시 금정구 부산대학로50번길 5,129.085915229606,35.2316615791513
삐뽀,음식,닭/오리요리,Q05A08,후라이드/양념치킨,부산광역시 금정구 부산대학로50번길 13,129.085985460202,35.2319854454526
로꼬꼬,음식,닭/오리요리,Q05A08,후라이드/양념치킨,부산광역시 금정구 부산대학로38번길 9,129.087179520272,35.2317313542055
봉지통닭,음식,닭/오리요리,Q05A08,후라이드/양념치킨,부산광역시 금정구 부산대학로50번길 16,129.08628408331,35.232136000233396
멕시카나치킨,음식,닭/오리요리,Q05A08,후라이드/양념치킨,부산광역시 금정구 부산대학로38번길 35,129.087436212008,35.232855771669
심야통닭,음식,닭/오리요리,Q05A08,후라이드/양념치킨,부산광역시 금정구 부산대학로50번길 41,129.086320831085,35.2332443662284
꼬끄,음식,닭/오리요리,Q05A08,후라이드/양념치킨,부산광역시 금정구 부산대학로38번길 22,129.087537276784,35.2321968572789
효원통닭,음식,닭/오리요리,Q05A08,후라이드/양념치킨,부산광역시 금정구 부산대학로49번길 16,129.085648659333,35.2306183707379
맘스터치,음식,닭/오리요리,Q05A08,후라이드/양념치킨,부산광역시 금정구 부산대학로63번길 2,129.083855791079,35.232103685788005
닭발이야기,음식,닭/오리요리,Q05A10,닭내장/닭발요리,부산광역시 금정구 부산대학로50번길 15,129.085877537147,35.2321306343022
효원통닭,음식,닭/오리요리,Q05A08,후라이드/양념치킨,부산광역시 금정구 부산대학로49번길 16,129.085615706478,35.2306186662896
옥이네닭집,음식,닭/오리요리,Q05A08,후라이드/양념치킨,부산광역시 금정구 부산대학로49번길 52,129.085210133072,35.229035875686606
낭만천하왕소금구이,음식,닭/오리요리,Q05A08,후라이드/양념치킨,부산광역시 금정구 부산대학로50번길 9,129.085939600599,35.231841636281
치킨스톰,음식,닭/오리요리,Q05A08,후라이드/양념치킨,부산광역시 금정구 부산대학로 63,129.084417869164,35.231413603351
김재완원조돼지김치구이,음식,닭/오리요리,Q05A08,후라이드/양념치킨,부산광역시 금정구 부산대학로50번길 41,129.086320710929,35.233235353520605
웬디스키친,음식,닭/오리요리,Q05A08,후라이드/양념치킨,부산광역시 금정구 부산대학로50번길 54,129.08671178413098,35.233727601241796
DK치킨,음식,닭/오리요리,Q05A08,후라이드/양념치킨,부산광역시 금정구 부산대학로63번길 38,129.083927677738,35.230074938941605
크라운닭발,음식,닭/오리요리,Q05A10,닭내장/닭발요리,부산광역시 금정구 부산대학로38번길 12,129.08742153851802,35.2317562215575
하바드치킨,음식,닭/오리요리,Q05A08,후라이드/양념치킨,부산광역시 금정구 금정로119번길 13,129.08685365424998,35.2353037395792
딥스,음식,닭/오리요리,Q05A08,후라이드/양념치킨,부산광역시 금정구 금정로91번길 16,129.086032707917,35.233057662245706
마늘약속통닭,음식,닭/오리요리,Q05A08,후라이드/양념치킨,부산광역시 금정구 금정로91번길 20,129.08591247772898,35.23310380988561
호식이두마리치킨,음식,닭/오리요리,Q05A08,후라이드/양념치킨,부산광역시 금정구 금정로119번길 13,129.08685365424998,35.2353037395792
유가네닭갈비,음식,닭/오리요리,Q05A02,닭갈비전문,부산광역시 금정구 금정로 59-5,129.085936347537,35.2299487695836
홍춘천치즈닭갈비,음식,닭/오리요리,Q05A02,닭갈비전문,부산광역시 금정구 금정로 82,129.08692880185302,35.2318778264586
킹콩닭강정,음식,닭/오리요리,Q05A08,후라이드/양념치킨,부산광역시 금정구 금정로 60,129.086650800721,35.2299784130174
노랑통닭부산대점,음식,닭/오리요리,Q05A08,후라이드/양념치킨,부산광역시 금정구 금정로91번길 19,129.085865656737,35.23288789904501
처갓집양념치킨,음식,닭/오리요리,Q05A08,후라이드/양념치킨,부산광역시 금정구 금정로149번길 8,129.087308848398,35.2381299782474
836숯불바베큐치킨,음식,닭/오리요리,Q05A08,후라이드/양념치킨,부산광역시 금정구 금정로91번길 22,129.085813736256,35.233113709492706
닭갈비제작소,음식,닭/오리요리,Q05A02,닭갈비전문,부산광역시 금정구 금정로 71,129.086290913862,35.2310002015706
발빠닭,음식,닭/오리요리,Q05A08,후라이드/양념치킨,부산광역시 금정구 금정로 89-1,129.086764830294,35.232762649903606
홍춘천,음식,닭/오리요리,Q05A02,닭갈비전문,부산광역시 금정구 금정로 82,129.08692880185302,35.2318778264586
BBQ치킨,음식,닭/오리요리,Q05A08,후라이드/양념치킨,부산광역시 금정구 금정로 92,129.087115735293,35.2327144298569
깐풍집,음식,닭/오리요리,Q05A08,후라이드/양념치킨,부산광역시 금정구 금강로279번길 28,129.08419520709802,35.2336690452915
치킨퐁,음식,닭/오리요리,Q05A08,후라이드/양념치킨,부산광역시 금정구 금강로335번길 55,129.083447853859,35.237777009683796
이승윤의알통닭강정,음식,닭/오리요리,Q05A08,후라이드/양념치킨,부산광역시 금정구 금강로335번길 10,129.085857107695,35.2380168184947
신천닭도리,음식,닭/오리요리,Q05A03,닭도리탕전문,부산광역시 금정구 금강로 271-6,129.085081190067,35.2325524100855
미쳐버린파닭,음식,닭/오리요리,Q05A08,후라이드/양념치킨,부산광역시 금정구 금강로335번길 37,129.084348524869,35.237759930049
맛닭꼬,음식,닭/오리요리,Q05A08,후라이드/양념치킨,부산광역시 금정구 금강로 256-10,129.085540977534,35.2307815847253
챨리통닭,음식,닭/오리요리,Q05A08,후라이드/양념치킨,부산광역시 금정구 금강로 256-9,129.085575611337,35.230907467182796
뉴숯불통닭,음식,닭/오리요리,Q05A08,후라이드/양념치킨,부산광역시 금정구 금강로335번길 47,129.08374421602,35.2377563288229
유가네닭갈비,음식,닭/오리요리,Q05A02,닭갈비전문,부산광역시 금정구 금강로 272,129.085494400698,35.232233222531704
유가네춘천닭갈비,음식,닭/오리요리,Q05A02,닭갈비전문,부산광역시 금정구 금강로 248-7,129.085325313695,35.230260718765
에이스치킨,음식,닭/오리요리,Q05A08,후라이드/양념치킨,부산광역시 금정구 금강로 225,129.081920317048,35.2303002150514
깻잎통닭부산대점,음식,닭/오리요리,Q05A08,후라이드/양념치킨,부산광역시 금정구 금강로279번길 61,129.08343111207398,35.2348657071297
호치킨,음식,닭/오리요리,Q05A08,후라이드/양념치킨,부산광역시 금정구 금강로 256-1,129.085180895752,35.2309650892851
숙성고닭갈비무한리필,음식,닭/오리요리,Q05A02,닭갈비전문,부산광역시 금정구 금강로 254-1,129.085112229474,35.2307583876866
꼬야야채통닭,음식,닭/오리요리,Q05A08,후라이드/양념치킨,부산광역시 금정구 금강로 256-6,129.085310907237,35.23082871677379
국제통닭,음식,닭/오리요리,Q05A08,후라이드/양념치킨,부산광역시 금정구 금강로 246-1,129.085080420304,35.2300195419365
만냥통닭,음식,닭/오리요리,Q05A08,후라이드/양념치킨,부산광역시 금정구 금강로335번길 17,129.08554687778098,35.237821298192
쌀통닭,음식,닭/오리요리,Q05A08,후라이드/양념치킨,부산광역시 금정구 금강로 301,129.08595907120701,35.234951217861706
이정찜닭,음식,닭/오리요리,Q05A04,찜닭전문점,부산광역시 금정구 장전로 56,129.083176078837,35.2297301290396
헬로우닭강정,음식,닭/오리요리,Q05A08,후라이드/양념치킨,부산광역시 금정구 장전로12번길 24,129.08801904595302,35.2287853156826
신짜글이닭발,음식,닭/오리요리,Q05A10,닭내장/닭발요리,부산광역시 금정구 장전로12번길 27,129.08787926129298,35.2290119168199
원조밀면,음식,분식,Q04A01,라면김밥분식,부산광역시 금정구 부산대학로64번길 112,129.08583500540502,35.236358481097604
라우포앤드야끼떼리아,음식,분식,Q04A01,라면김밥분식,부산광역시 금정구 부산대학로63번길 2,129.083855791079,35.232103685788005
수철이네왕새우튀김,음식,분식,Q04A01,라면김밥분식,부산광역시 금정구 부산대학로49번길 42,129.085326215264,35.2295035521535
유림부대밀면,음식,분식,Q04A01,라면김밥분식,부산광역시 금정구 부산대학로63번길 21-5,129.084430962544,35.2307464655009
맘떡떡볶이에밥볶아,음식,분식,Q04A03,떡볶이전문,부산광역시 금정구 부산대학로 62,129.084730950995,35.231825432396796
머거스푸드,음식,분식,Q04A01,라면김밥분식,부산광역시 금정구 부산대학로63번길 39,129.084144964063,35.2298927171347
밥풀데기,음식,분식,Q04A01,라면김밥분식,부산광역시 금정구 부산대학로63번길 11,129.084216312742,35.23112696760729
전통쑥밀면,음식,분식,Q04A02,국수/만두/칼국수,부산광역시 금정구 부산대학로 38,129.087406344668,35.231440875496
우마이도,음식,분식,Q04A01,라면김밥분식,부산광역시 금정구 부산대학로63번길 9,129.08435958912,35.2311617393204
담미,음식,분식,Q04A02,국수/만두/칼국수,부산광역시 금정구 부산대학로63번길 43,129.08406651612,35.2297762404193
경대컵밥부산대점,음식,분식,Q04A01,라면김밥분식,부산광역시 금정구 부산대학로64번길 32,129.084811855777,35.2329514309435
구포국수,음식,분식,Q04A01,라면김밥분식,부산광역시 금정구 부산대학로64번길 149,129.086056164383,35.2381141840481
15담미수제만두,음식,분식,Q04A02,국수/만두/칼국수,부산광역시 금정구 부산대학로63번길 43,129.08406651612,35.2297762404193
청년다방,음식,분식,Q04A03,떡볶이전문,부산광역시 금정구 부산대학로63번길 2,129.083846844508,35.2322570003316
벙커201,음식,분식,Q04A01,라면김밥분식,부산광역시 금정구 부산대학로49번길 42,129.085326215264,35.2295035521535
더드림,음식,분식,Q04A01,라면김밥분식,부산광역시 금정구 부산대학로63번길 2,129.083846844508,35.2322570003316
죠스찜닭,음식,분식,Q04A03,떡볶이전문,부산광역시 금정구 부산대학로 59,129.084724472476,35.2313387457869
보스턴오뎅,음식,분식,Q04A01,라면김밥분식,부산광역시 금정구 부산대학로38번길 23,129.087318549053,35.2322709326078
쿠카이야,음식,분식,Q04A04,우동전문점,부산광역시 금정구 부산대학로63번길 37,129.084147002381,35.23004593336029
뽕스루,음식,분식,Q04A01,라면김밥분식,부산광역시 금정구 금정로52번길 3-10,129.086778404347,35.2296617847459
테토테,음식,분식,Q04A01,라면김밥분식,부산광역시 금정구 금정로91번길 8,129.086526053993,35.232981124401
수전포만두,음식,분식,Q04A01,라면김밥분식,부산광역시 금정구 금정로 120,129.087741386475,35.2351425306097
양이양이,음식,분식,Q04A01,라면김밥분식,부산광역시 금정구 금정로68번길 31-4,129.08837215849502,35.230548843926
김밥천국,음식,분식,Q04A01,라면김밥분식,부산광역시 금정구 금정로 151,129.087682107618,35.238108596901796
빨봉분식,음식,분식,Q04A01,라면김밥분식,부산광역시 금정구 금정로60번길 39,129.088457173315,35.2295114937881
서브웨이부산대역점,음식,분식,Q04A01,라면김밥분식,부산광역시 금정구 금정로60번길 40,129.088399484198,35.2293046953628
김밥만두천국,음식,분식,Q04A02,국수/만두/칼국수,부산광역시 금정구 금강로335번길 38,129.08441683569998,35.2379395936536
부산레포츠분식점,음식,분식,Q04A01,라면김밥분식,부산광역시 금정구 금강로335번길 43,129.083984932254,35.2376820629284
락원각,음식,분식,Q04A01,라면김밥분식,부산광역시 금정구 금강로321번길 51,129.083666676008,35.2368826861584
우리그리분식,음식,분식,Q04A01,라면김밥분식,부산광역시 금정구 금강로321번길 60,129.083262742441,35.2370755915112
얌샘,음식,분식,Q04A01,라면김밥분식,부산광역시 금정구 금강로 272-1,129.08551841077698,35.2323862416087
우정분식,음식,분식,Q04A01,라면김밥분식,부산광역시 금정구 금강로 268,129.08541270714701,35.23187340357821
맘마킹,음식,분식,Q04A01,라면김밥분식,부산광역시 금정구 금강로279번길 81-12,129.083102801715,35.2357880516644
프리토,음식,분식,Q04A01,라면김밥분식,부산광역시 금정구 금강로 256-5,129.085345180594,35.230927561159895
전통쑥밀면,음식,분식,Q04A02,국수/만두/칼국수,부산광역시 금정구 금강로279번길 54,129.08354355572502,35.2342337354792
야마벤또,음식,분식,Q04A01,라면김밥분식,부산광역시 금정구 금강로 256,129.085135518241,35.2308573306082
마이묵고가이소,음식,분식,Q04A01,라면김밥분식,부산광역시 금정구 금강로279번길 81-6,129.08342971478,35.2355868225305
맛촌,음식,분식,Q04A01,라면김밥분식,부산광역시 금정구 금강로321번길 59,129.08334714828,35.23681343631572
맘마킹도시락,음식,분식,Q04A01,라면김밥분식,부산광역시 금정구 금강로279번길 81-12,129.083102801715,35.2357880516644
땡초불닭발동대문엽기떡뽁이부산,음식,분식,Q04A03,떡볶이전문,부산광역시 금정구 금강로 271-4,129.085256222611,35.2324967581355
허박넝쿨,음식,분식,Q04A01,라면김밥분식,부산광역시 금정구 금강로 329-2,129.086355460124,35.237489547235704
죠스떡볶이,음식,분식,Q04A03,떡볶이전문,부산광역시 금정구 금강로 260,129.085227233592,35.231144949654706
부대김밥천국,음식,분식,Q04A01,라면김밥분식,부산광역시 금정구 금강로279번길 62,129.083866310452,35.2345463282713
땡초불닭발동대문엽기떡뽁이,음식,분식,Q04A03,떡볶이전문,부산광역시 금정구 금강로 271-4,129.085256222611,35.2324967581355
오봉도시락,음식,분식,Q04A01,라면김밥분식,부산광역시 금정구 금강로 280,129.085679399034,35.2329256249879
소다미김밥,음식,분식,Q04A01,라면김밥분식,부산광역시 금정구 금강로 271-4,129.085256222611,35.2324967581355
킹콩떡볶이,음식,분식,Q04A03,떡볶이전문,부산광역시 금정구 금강로335번길 17,129.08554687778098,35.237821298192
총각칼국수,음식,분식,Q04A02,국수/만두/칼국수,부산광역시 금정구 금강로279번길 24,129.084348273274,35.233613591396704
영자의돼지꿈,음식,분식,Q04A01,라면김밥분식,부산광역시 금정구 금강로 237,129.084457388967,35.2294302150279
타쿠미,음식,분식,Q04A01,라면김밥분식,부산광역시 금정구 금강로 241-1,129.084527731572,35.2297630951509
진경국수,음식,분식,Q04A01,라면김밥분식,부산광역시 금정구 금강로 285-2,129.085601488596,35.233674468088005
신천할매떡볶이,음식,분식,Q04A03,떡볶이전문,부산광역시 금정구 금강로279번길 61,129.08343111207398,35.2348657071297
옛다미,음식,분식,Q04A01,라면김밥분식,부산광역시 금정구 금강로335번길 49,129.083810247442,35.2377647513346
정분식,음식,분식,Q04A01,라면김밥분식,부산광역시 금정구 장전로 51,129.08349997212602,35.2293035819021
미정분식,음식,분식,Q04A01,라면김밥분식,부산광역시 금정구 장전로 57,129.082856938975,35.2296879154781
미전분식,음식,분식,Q04A01,라면김밥분식,부산광역시 금정구 장전로 57,129.082856938975,35.2296879154781
미니국시,음식,분식,Q04A02,국수/만두/칼국수,부산광역시 금정구 장전로12번길 28,129.08805368263398,35.22891119741821
서문국수,음식,분식,Q04A02,국수/만두/칼국수,부산광역시 금정구 장전로12번길 32-5,129.088320188323,35.2291251325384
부산대학교금정회관식당,음식,기타음식업,Q14A01,구내식당/자급식음식점,부산광역시 금정구 부산대학로63번길 2,129.083855791079,35.232103685788005
참새와뱁새,음식,한식,Q01A01,한식/백반/한정식,부산광역시 금정구 부산대학로38번길 25,129.087330736191,35.23236096099421
좋은집,음식,한식,Q01A01,한식/백반/한정식,부산광역시 금정구 부산대학로38번길 33,129.087367778859,35.2326670969572
태양회,음식,한식,Q01A01,한식/백반/한정식,부산광역시 금정구 부산대학로63번길 43,129.08406651612,35.2297762404193
다우다미,음식,한식,Q01A01,한식/백반/한정식,부산광역시 금정구 부산대학로38번길 28,129.087595206556,35.2324216814302
육회이야기,음식,한식,Q01A01,한식/백반/한정식,부산광역시 금정구 부산대학로49번길 10,129.08570706299,35.2308792468183
항아리,음식,한식,Q01A01,한식/백반/한정식,부산광역시 금정구 부산대학로49번길 22,129.085568407633,35.2303667043493
이모식당,음식,한식,Q01A01,한식/백반/한정식,부산광역시 금정구 부산대학로63번길 40,129.08390427080602,35.2299669830246
추풍령,음식,한식,Q01A01,한식/백반/한정식,부산광역시 금정구 부산대학로64번길 137,129.085918093961,35.23764670635929
칠성식당,음식,한식,Q01A01,한식/백반/한정식,부산광역시 금정구 부산대학로49번길 49,129.085474951254,35.229123639162395
C&J,음식,한식,Q01A01,한식/백반/한정식,부산광역시 금정구 부산대학로50번길 21,129.086023218332,35.2323456582006
리틀프랑,음식,한식,Q01A01,한식/백반/한정식,부산광역시 금정구 부산대학로 50,129.08586888993,35.231481719093104
비봉식당,음식,한식,Q01A01,한식/백반/한정식,부산광역시 금정구 부산대학로49번길 13,129.086135331298,35.2308663908874
스페로스페라,음식,한식,Q01A01,한식/백반/한정식,부산광역시 금정구 부산대학로63번길 22,129.08394657406,35.2306696800443
소다솔,음식,한식,Q01A04,한정식전문,부산광역시 금정구 부산대학로50번길 23,129.086156954671,35.2324886787979
행복굽는돼지집딸,음식,한식,Q01A01,한식/백반/한정식,부산광역시 금정구 부산대학로50번길 26,129.086376645364,35.2324867072114
진성식당,음식,한식,Q01A01,한식/백반/한정식,부산광역시 금정구 부산대학로50번길 3-4,129.085773032525,35.2317079237163
진주만포장,음식,한식,Q01A01,한식/백반/한정식,부산광역시 금정구 부산대학로50번길 23,129.086156954671,35.2324886787979
할매집보리밥,음식,한식,Q01A16,보리밥전문,부산광역시 금정구 부산대학로63번길 21-3,129.084299390704,35.2307656717666
총각식당,음식,한식,Q01A01,한식/백반/한정식,부산광역시 금정구 부산대학로38번길 15,129.08723744869602,35.2319561785691
골목식당,음식,한식,Q01A01,한식/백반/한정식,부산광역시 금정구 부산대학로49번길 23,129.085764563086,35.2302477657135
부산밀면,음식,한식,Q01A01,한식/백반/한정식,부산광역시 금정구 부산대학로63번길 50,129.083777211865,35.229499403440705
언양생갈비,음식,한식,Q01A02,갈비/삼겹살,부산광역시 금정구 부산대학로64번길 155,129.086004722066,35.23837604523921
오라,음식,한식,Q01A01,한식/백반/한정식,부산광역시 금정구 부산대학로50번길 28,129.086367102726,35.2325949583041
푸조와곰솔,음식,한식,Q01A01,한식/백반/한정식,부산광역시 금정구 부산대학로63번길 7,129.08429548178802,35.231297520473106
막끌리네,음식,한식,Q01A01,한식/백반/한정식,부산광역시 금정구 부산대학로64번길 142,129.08621721864202,35.237833311599005
고갈비집,음식,한식,Q01A01,한식/백반/한정식,부산광역시 금정구 부산대학로49번길 19,129.085832149738,35.230373352516
보글보글국밥,음식,한식,Q01A01,한식/백반/한정식,부산광역시 금정구 부산대학로 45,129.086358742274,35.2311438134594
톰스캐빈,음식,한식,Q01A01,한식/백반/한정식,부산광역시 금정구 부산대학로50번길 15,129.085877537147,35.2321306343022
전주콩나물국밥전문점,음식,한식,Q01A05,해장국/감자탕,부산광역시 금정구 부산대학로64번길 12-7,129.084931431022,35.2320309527639
일송정생구이,음식,한식,Q01A01,한식/백반/한정식,부산광역시 금정구 부산대학로64번길 132,129.086055255116,35.2372218279875
더벤티1,음식,한식,Q01A01,한식/백반/한정식,부산광역시 금정구 부산대학로64번길 42,129.085048173107,35.233372960755794
대독장,음식,한식,Q01A01,한식/백반/한정식,부산광역시 금정구 부산대학로63번길 39,129.084144964063,35.2298927171347
터줏집돼지국밥,음식,한식,Q01A16,보리밥전문,부산광역시 금정구 부산대학로49번길 13,129.086135331298,35.2308663908874
마당쇠돼지갈비,음식,한식,Q01A02,갈비/삼겹살,부산광역시 금정구 부산대학로 29,129.088158731273,35.2310194797487
황소야,음식,한식,Q01A01,한식/백반/한정식,부산광역시 금정구 부산대학로49번길 32,129.085441818682,35.229935177588104
삼백집,음식,한식,Q01A01,한식/백반/한정식,부산광역시 금정구 부산대학로63번길 2,129.083855791079,35.232103685788005
메종드아올스,음식,한식,Q01A01,한식/백반/한정식,부산광역시 금정구 부산대학로50번길 43-1,129.086201441799,35.233353603111
김장독,음식,한식,Q01A01,한식/백반/한정식,부산광역시 금정구 부산대학로38번길 5,129.087110247078,35.2314795903302
전장식당,음식,한식,Q01A01,한식/백반/한정식,부산광역시 금정구 부산대학로63번길 11,129.084216312742,35.23112696760729
디아스텔,음식,한식,Q01A01,한식/백반/한정식,부산광역시 금정구 부산대학로64번길 89,129.085350761787,35.2354704598503
멘타쿠,음식,한식,Q01A01,한식/백반/한정식,부산광역시 금정구 부산대학로38번길 14,129.08745629594299,35.2318911161032
달빛부엌,음식,한식,Q01A01,한식/백반/한정식,부산광역시 금정구 부산대학로49번길 41,129.08557861026,35.229483261263205
퀴진,음식,한식,Q01A01,한식/백반/한정식,부산광역시 금정구 부산대학로 61,129.084581915373,35.2313580508101
행님포차,음식,한식,Q01A01,한식/백반/한정식,부산광역시 금정구 부산대학로49번길 19,129.085832149738,35.230373352516
만권화밥,음식,한식,Q01A01,한식/백반/한정식,부산광역시 금정구 부산대학로63번길 2,129.083846844508,35.2322570003316
꿉자,음식,한식,Q01A02,갈비/삼겹살,부산광역시 금정구 부산대학로 50,129.08586888993,35.231481719093104
보이후드,음식,한식,Q01A01,한식/백반/한정식,부산광역시 금정구 부산대학로 33-16,129.087015278677,35.2309486297126
웍헤이,음식,한식,Q01A01,한식/백반/한정식,부산광역시 금정구 부산대학로 33-20,129.08717848041002,35.2308299847345
술바다,음식,한식,Q01A99,기타고기요리,부산광역시 금정구 부산대학로49번길 17,129.085877647971,35.2304901236417
테스투치네,음식,한식,Q01A01,한식/백반/한정식,부산광역시 금정구 부산대학로49번길 41-7,129.085700756492,35.229581317463996
디아스텔,음식,한식,Q01A01,한식/백반/한정식,부산광역시 금정구 부산대학로64번길 89,129.08535052167,35.2354524344356
"주당마을,닥장투",음식,한식,Q01A01,한식/백반/한정식,부산광역시 금정구 부산대학로49번길 20,129.085371531371,35.230431566386706
밥에큐,음식,한식,Q01A01,한식/백반/한정식,부산광역시 금정구 부산대학로63번길 48,129.083790473345,35.2296705467891
고요남,음식,한식,Q01A01,한식/백반/한정식,부산광역시 금정구 부산대학로 34,129.087733951458,35.2312937113405
안동국밥,음식,한식,Q01A05,해장국/감자탕,부산광역시 금정구 부산대학로50번길 9,129.085939600599,35.231841636281
곱창선생,음식,한식,Q01A03,곱창/양구이전문,부산광역시 금정구 부산대학로50번길 26,129.086376645364,35.2324867072114
탕화쿵푸마라탕,음식,한식,Q01A01,한식/백반/한정식,부산광역시 금정구 부산대학로63번길 21-4,129.084253534804,35.2306218618614
일등갈비,음식,한식,Q01A02,갈비/삼겹살,부산광역시 금정구 부산대학로50번길 23,129.086156954671,35.2324886787979
달빛주막,음식,한식,Q01A04,한정식전문,부산광역시 금정구 부산대학로49번길 18,129.085614145619,35.2305015010091
부대뒷통구이,음식,한식,Q01A99,기타고기요리,부산광역시 금정구 부산대학로38번길 14,129.08745629594299,35.2318911161032
초량댁비빔모리,음식,한식,Q01A01,한식/백반/한정식,부산광역시 금정구 부산대학로 10,129.089998993407,35.2330851062241
심취,음식,한식,Q01A01,한식/백반/한정식,부산광역시 금정구 부산대학로38번길 14,129.08745629594299,35.2318911161032
씨포그,음식,한식,Q01A01,한식/백반/한정식,부산광역시 금정구 부산대학로50번길 3-6,129.085652323853,35.231718020227106
따신밥,음식,한식,Q01A01,한식/백반/한정식,부산광역시 금정구 부산대학로63번길 19,129.08416769889098,35.23077586517251
까,음식,한식,Q01A01,한식/백반/한정식,부산광역시 금정구 부산대학로38번길 9,129.087179520272,35.2317313542055
군자대한곱창,음식,한식,Q01A03,곱창/양구이전문,부산광역시 금정구 부산대학로50번길 22,129.08633090492202,35.2323519109264
밀실,음식,한식,Q01A01,한식/백반/한정식,부산광역시 금정구 부산대학로64번길 149,129.086078735726,35.238159050404
백송부대찌개,음식,한식,Q01A07,부대찌개/섞어찌개,부산광역시 금정구 부산대학로 61,129.084581915373,35.2313580508101
자마미등갈비,음식,한식,Q01A02,갈비/삼겹살,부산광역시 금정구 부산대학로49번길 22,129.085568407633,35.2303667043493
비빔밥,음식,한식,Q01A01,한식/백반/한정식,부산광역시 금정구 부산대학로 10,129.089998993407,35.2330851062241
도마,음식,한식,Q01A01,한식/백반/한정식,부산광역시 금정구 금정로 153,129.087718553129,35.2383696689192
레드보틀,음식,한식,Q01A01,한식/백반/한정식,부산광역시 금정구 금정로91번길 3,129.086633376018,35.2327908714566
배씨집,음식,한식,Q01A01,한식/백반/한정식,부산광역시 금정구 금정로52번길 48,129.088733489352,35.2288149469987
성애문현곱창,음식,한식,Q01A03,곱창/양구이전문,부산광역시 금정구 금정로149번길 13,129.087074910222,35.2378887076113
더다락,음식,한식,Q01A01,한식/백반/한정식,부산광역시 금정구 금정로60번길 6,129.08668171022398,35.229824901090204
처갓집장전역점,음식,한식,Q01A01,한식/백반/한정식,부산광역시 금정구 금정로149번길 8,129.087308848398,35.2381299782474
착한고르케,음식,한식,Q01A01,한식/백반/한정식,부산광역시 금정구 금정로 60,129.086650800721,35.2299784130174
메리트,음식,한식,Q01A01,한식/백반/한정식,부산광역시 금정구 금정로 155,129.08772011746998,35.23848683396429
호미빙,음식,한식,Q01A01,한식/백반/한정식,부산광역시 금정구 금정로60번길 24,129.087501554196,35.2295200830825
생일상,음식,한식,Q01A01,한식/백반/한정식,부산광역시 금정구 금정로149번안길 22,129.087020507171,35.237104997431395
놀부부대찌게,음식,한식,Q01A07,부대찌개/섞어찌개,부산광역시 금정구 금정로 57,129.08607613919702,35.2297221705982
놀부부대찌개철판구이부산대점,음식,한식,Q01A07,부대찌개/섞어찌개,부산광역시 금정구 금정로 57,129.08607613919702,35.2297221705982
통큰집,음식,한식,Q01A02,갈비/삼겹살,부산광역시 금정구 금정로60번길 7-3,129.086773790318,35.2301395570691
돈본가,음식,한식,Q01A99,기타고기요리,부산광역시 금정구 금정로 155,129.08772011746998,35.23848683396429
라그라스,음식,한식,Q01A01,한식/백반/한정식,부산광역시 금정구 금정로91번길 22,129.085813736256,35.233113709492706
고기는모름지기연탄구이,음식,한식,Q01A02,갈비/삼겹살,부산광역시 금정구 금정로91번길 2,129.08671243159299,35.23295240986729
메트로오아시스,음식,한식,Q01A99,기타고기요리,부산광역시 금정구 금정로52번길 45,129.088438124214,35.228907741159894
성북동돈까스,음식,한식,Q01A99,기타고기요리,부산광역시 금정구 금정로 59-8,129.085807299165,35.2301572444538
옹헤야불백,음식,한식,Q01A01,한식/백반/한정식,부산광역시 금정구 금정로60번길 32,129.08805015898199,35.2294700840871
명주네보쌈,음식,한식,Q01A08,족발/보쌈전문,부산광역시 금정구 금정로119번길 16,129.086615231523,35.235549252401704
노라,음식,한식,Q01A01,한식/백반/한정식,부산광역시 금정구 금정로91번길 3,129.086633376018,35.2327908714566
꼴통,음식,한식,Q01A01,한식/백반/한정식,부산광역시 금정구 금정로91번길 15,129.08606313909598,35.2328680996753
프리츠프리츠,음식,한식,Q01A01,한식/백반/한정식,부산광역시 금정구 금강로 247-7,129.08428169093798,35.230261057959105
샤방샤방,음식,한식,Q01A01,한식/백반/한정식,부산광역시 금정구 금강로 332,129.086753211836,35.2376572383078
소울메이트,음식,한식,Q01A01,한식/백반/한정식,부산광역시 금정구 금강로 277,129.085404544016,35.2329100624317
원조장충왕족발,음식,한식,Q01A08,족발/보쌈전문,부산광역시 금정구 금강로 329-2,129.086355460124,35.237489547235704
순,음식,한식,Q01A01,한식/백반/한정식,부산광역시 금정구 금강로 334,129.08672157856898,35.2377566739096
미가보리밥,음식,한식,Q01A16,보리밥전문,부산광역시 금정구 금강로 247-6,129.08454735182198,35.23041191241639
김해뒷고기,음식,한식,Q01A01,한식/백반/한정식,부산광역시 금정구 금강로 276-9,129.086072081529,35.2327147850573
예감쪽갈비,음식,한식,Q01A01,한식/백반/한정식,부산광역시 금정구 금강로 282,129.085715355023,35.2331506471488
두유노불고기,음식,한식,Q01A01,한식/백반/한정식,부산광역시 금정구 금강로 271-8,129.084917021835,35.232598950616605
원두막,음식,한식,Q01A01,한식/백반/한정식,부산광역시 금정구 금강로 338-1,129.086618938732,35.2382984221742
서촌식당,음식,한식,Q01A01,한식/백반/한정식,부산광역시 금정구 금강로321번길 39,129.0844687108,35.2368845163684
오두막집,음식,한식,Q01A01,한식/백반/한정식,부산광역시 금정구 금강로 270-5,129.085768893168,35.2322217467938
찌개생각,음식,한식,Q01A07,부대찌개/섞어찌개,부산광역시 금정구 금강로279번길 72,129.08400448333902,35.235022821557
고향맛,음식,한식,Q01A01,한식/백반/한정식,부산광역시 금정구 금강로 272,129.085494400698,35.232233222531704
부어라마셔라,음식,한식,Q01A01,한식/백반/한정식,부산광역시 금정구 금강로335번길 58,129.083263740912,35.23797696087529
잘차린밥상,음식,한식,Q01A01,한식/백반/한정식,부산광역시 금정구 금강로279번길 81-4,129.083780634131,35.2355386119211
여로집,음식,한식,Q01A01,한식/백반/한정식,부산광역시 금정구 금강로 252,129.085020154999,35.23044373037221
석봉댁,음식,한식,Q01A01,한식/백반/한정식,부산광역시 금정구 금강로 334,129.08672157856898,35.2377566739096
허기가드,음식,한식,Q01A01,한식/백반/한정식,부산광역시 금정구 금강로321번길 48,129.083943702597,35.237060481182105
진주식당,음식,한식,Q01A01,한식/백반/한정식,부산광역시 금정구 금강로321번길 51,129.083666676008,35.2368826861584
본가,음식,한식,Q01A01,한식/백반/한정식,부산광역시 금정구 금강로 271-8,129.084917021835,35.232598950616605
부자추어탕,음식,한식,Q01A01,한식/백반/한정식,부산광역시 금정구 금강로279번길 9,129.085100455926,35.2331741887393
더만족,음식,한식,Q01A01,한식/백반/한정식,부산광역시 금정구 금강로279번길 3,129.085240855408,35.2329926542539
승승삼겹축제,음식,한식,Q01A02,갈비/삼겹살,부산광역시 금정구 금강로335번길 9,129.085975302734,35.2378174548849
고기랑한방울,음식,한식,Q01A01,한식/백반/한정식,부산광역시 금정구 금강로 274-3,129.085684619611,35.2324929163593
효원면옥,음식,한식,Q01A01,한식/백반/한정식,부산광역시 금정구 금강로 247-10,129.084295433321,35.2304682520815
어머니국밥국수,음식,한식,Q01A16,보리밥전문,부산광역시 금정구 금강로 267-1,129.085051660224,35.2319848061091
부광식당,음식,한식,Q01A01,한식/백반/한정식,부산광역시 금정구 금강로321번길 72,129.08258166216999,35.237081685300005
감미식당,음식,한식,Q01A01,한식/백반/한정식,부산광역시 금정구 금강로321번길 35,129.084633487802,35.2368830398543
곁집,음식,한식,Q01A01,한식/백반/한정식,부산광역시 금정구 금강로 254,129.085077956474,35.2306595432254
식당103,음식,한식,Q01A01,한식/백반/한정식,부산광역시 금정구 금강로 250,129.085007730756,35.2303356762416
간받이토시살,음식,한식,Q01A99,기타고기요리,부산광역시 금정구 금강로 238,129.08474081695,35.2292654271599
일문옥,음식,한식,Q01A01,한식/백반/한정식,부산광역시 금정구 금강로 239,129.084480676519,35.229529158118204
소고기세끼,음식,한식,Q01A01,한식/백반/한정식,부산광역시 금정구 금강로 276-6,129.08575172773502,35.232582452287296
엉터리생고기,음식,한식,Q01A02,갈비/삼겹살,부산광역시 금정구 금강로 255,129.084850885794,35.2309319922878
똥다리불닭발,음식,한식,Q01A01,한식/백반/한정식,부산광역시 금정구 금강로 286,129.085874064162,35.2335187886856
무한리필삼겹시대부산대점,음식,한식,Q01A02,갈비/삼겹살,부산광역시 금정구 금강로 252,129.085020154999,35.23044373037221
이학년일반,음식,한식,Q01A01,한식/백반/한정식,부산광역시 금정구 금강로279번길 70,129.084014149228,35.2349235833439
싸움의고수,음식,한식,Q01A01,한식/백반/한정식,부산광역시 금정구 금강로 248-9,129.085500701338,35.23023210467721
크라운,음식,한식,Q01A01,한식/백반/한정식,부산광역시 금정구 금강로 338-1,129.086618938732,35.2382984221742
맛있게찜,음식,한식,Q01A01,한식/백반/한정식,부산광역시 금정구 금강로 256,129.085135518241,35.2308573306082
펍다트맥스,음식,한식,Q01A01,한식/백반/한정식,부산광역시 금정구 금강로 255-5,129.084608990607,35.2309161324499
닭치고한끼,음식,한식,Q01A01,한식/백반/한정식,부산광역시 금정구 금강로 246,129.08501271511102,35.229884941964
핫셰프포차,음식,한식,Q01A01,한식/백반/한정식,부산광역시 금정구 금강로 276-10,129.08599218663798,35.23249015722629
묵자,음식,한식,Q01A01,한식/백반/한정식,부산광역시 금정구 금강로279번길 8,129.08519025347098,35.2333176042842
삼겹싸롱,음식,한식,Q01A02,갈비/삼겹살,부산광역시 금정구 금강로 246,129.08501271511102,35.229884941964
왕통뼈감자탕,음식,한식,Q01A05,해장국/감자탕,부산광역시 금정구 금강로 258,129.085182095954,35.2310552164301
삼삼삼겹,음식,한식,Q01A02,갈비/삼겹살,부산광역시 금정구 금강로335번길 9,129.085975302734,35.2378174548849
미미엔,음식,한식,Q01A99,기타고기요리,부산광역시 금정구 금강로 272,129.085494400698,35.232233222531704
굿쉐프닭요리밥상,음식,한식,Q01A01,한식/백반/한정식,부산광역시 금정구 금강로 247-6,129.08454735182198,35.23041191241639
해바라기식당,음식,한식,Q01A01,한식/백반/한정식,부산광역시 금정구 금강로 272-1,129.08551841077698,35.2323862416087
자스민랩,음식,한식,Q01A01,한식/백반/한정식,부산광역시 금정구 금강로279번길 5,129.085187492763,35.233110311927206
페퍼민트커피,음식,한식,Q01A01,한식/백반/한정식,부산광역시 금정구 금강로279번길 5,129.085187492763,35.233110311927206
안식당,음식,한식,Q01A01,한식/백반/한정식,부산광역시 금정구 금강로 254,129.085077956474,35.2306595432254
프리블릭,음식,한식,Q01A01,한식/백반/한정식,부산광역시 금정구 금강로279번길 20,129.084632435632,35.2335028799051
샤브도둑,음식,한식,Q01A01,한식/백반/한정식,부산광역시 금정구 금강로 257-1,129.084908927186,35.231165830636705
제주도해장국,음식,한식,Q01A05,해장국/감자탕,부산광역시 금정구 금강로 238-1,129.084763984826,35.2293553574748
승승축산,음식,한식,Q01A01,한식/백반/한정식,부산광역시 금정구 금강로335번길 9,129.085975302734,35.2378174548849
인마이플레이스,음식,한식,Q01A01,한식/백반/한정식,부산광역시 금정구 금강로279번길 2,129.085496502945,35.2332157065394
사랑담은묵은지찜찌개,음식,한식,Q01A01,한식/백반/한정식,부산광역시 금정구 금강로335번길 49,129.083810247442,35.2377647513346
대길식당,음식,한식,Q01A01,한식/백반/한정식,부산광역시 금정구 장전로 47,129.083871873744,35.2291830730527
청포로가자,음식,한식,Q01A01,한식/백반/한정식,부산광역시 금정구 장전로 45,129.08410086129498,35.2290548293104
해동식당,음식,한식,Q01A01,한식/백반/한정식,부산광역시 금정구 장전로 37,129.084930971861,35.2286958539514
정식당,음식,한식,Q01A01,한식/백반/한정식,부산광역시 금정구 장전로 51,129.08349997212602,35.2293035819021
소울메이트,음식,한식,Q01A01,한식/백반/한정식,부산광역시 금정구 장전로12번길 24,129.08801904595302,35.2287853156826
1번출구,음식,한식,Q01A99,기타고기요리,부산광역시 금정구 장전로12번길 23,129.087800087158,35.2288413663301
럭키살롱,음식,한식,Q01A99,기타고기요리,부산광역시 금정구 장전로12번길 31,129.087837370241,35.2291655277413
우리터3호,음식,유흥주점,Q09A01,호프/맥주,부산광역시 금정구 부산대학로50번길 22,129.08633090492202,35.2323519109264
루이스펍,음식,유흥주점,Q09A01,호프/맥주,부산광역시 금정구 부산대학로64번길 142,129.08621721864202,35.237833311599005
치토스2,음식,유흥주점,Q09A01,호프/맥주,부산광역시 금정구 부산대학로50번길 17,129.08588936236,35.232193624733206
낭만포차,음식,유흥주점,Q09A02,소주방/포장마차,부산광역시 금정구 부산대학로50번길 14,129.08624980827298,35.2320371561624
어린왕자포차,음식,유흥주점,Q09A01,호프/맥주,부산광역시 금정구 부산대학로63번길 46-4,129.08386952014098,35.2298320872955
엑스지단란주점,음식,유흥주점,Q09A10,룸살롱/단란주점,부산광역시 금정구 부산대학로 22,129.08876587975598,35.23123936472229
맥주의전당,음식,유흥주점,Q09A01,호프/맥주,부산광역시 금정구 부산대학로49번길 8,129.085368589738,35.2310355167419
온달포차,음식,유흥주점,Q09A02,소주방/포장마차,부산광역시 금정구 부산대학로63번길 46-4,129.08386952014098,35.2298320872955
왕부정,음식,유흥주점,Q09A01,호프/맥주,부산광역시 금정구 부산대학로49번길 42,129.085326215264,35.2295035521535
폼프리츠,음식,유흥주점,Q09A01,호프/맥주,부산광역시 금정구 부산대학로 34-1,129.08765850442498,35.2314025547621
썰스데이파티,음식,유흥주점,Q09A01,호프/맥주,부산광역시 금정구 부산대학로50번길 21,129.086023218332,35.2323456582006
스타비어마트,음식,유흥주점,Q09A01,호프/맥주,부산광역시 금정구 부산대학로50번길 23,129.086156954671,35.2324886787979
툼스톰,음식,유흥주점,Q09A08,빠/카페/스탠드빠,부산광역시 금정구 부산대학로64번길 12-7,129.084931431022,35.2320309527639
TimeZone,음식,유흥주점,Q09A02,소주방/포장마차,부산광역시 금정구 부산대학로 49,129.085688936787,35.2311678506806
맥주창고더벙커,음식,유흥주점,Q09A01,호프/맥주,부산광역시 금정구 부산대학로50번길 13,129.085985460202,35.2319854454526
전야제부산대점,음식,유흥주점,Q09A02,소주방/포장마차,부산광역시 금정구 부산대학로 53-1,129.085381014591,35.2311435708125
삼구포차,음식,유흥주점,Q09A02,소주방/포장마차,부산광역시 금정구 부산대학로50번길 23,129.086156954671,35.2324886787979
잇쇼우안,음식,유흥주점,Q09A01,호프/맥주,부산광역시 금정구 부산대학로50번길 40,129.08652785666402,35.233116315012296
더마셔,음식,유흥주점,Q09A01,호프/맥주,부산광역시 금정구 부산대학로50번길 11-8,129.08570094475598,35.23206912188579
백석,음식,유흥주점,Q09A01,호프/맥주,부산광역시 금정구 부산대학로38번길 23-1,129.087208343285,35.2322448811807
우리터2호,음식,유흥주점,Q09A01,호프/맥주,부산광역시 금정구 부산대학로50번길 22,129.08633090492202,35.2323519109264
키친인자한,음식,유흥주점,Q09A01,호프/맥주,부산광역시 금정구 부산대학로64번길 128,129.08600915191798,35.237059993615
별의별포차,음식,유흥주점,Q09A02,소주방/포장마차,부산광역시 금정구 부산대학로50번길 5,129.085915229606,35.2316615791513
야끼니꾸다깡,음식,유흥주점,Q09A01,호프/맥주,부산광역시 금정구 부산대학로50번길 11-6,129.085810309179,35.232032085722
주동아리,음식,유흥주점,Q09A07,기타일반유흥주점,부산광역시 금정구 부산대학로49번길 18,129.085614145619,35.2305015010091
탭일레븐,음식,유흥주점,Q09A01,호프/맥주,부산광역시 금정구 부산대학로49번길 8,129.085368589738,35.2310355167419
더기비어,음식,유흥주점,Q09A01,호프/맥주,부산광역시 금정구 부산대학로49번길 16,129.085615706478,35.2306186662896
장호우양꼬치,음식,유흥주점,Q09A03,꼬치구이전문점,부산광역시 금정구 부산대학로38번길 13,129.087203653582,35.2318933856134
룰루랄라,음식,유흥주점,Q09A01,호프/맥주,부산광역시 금정구 부산대학로 29,129.088155842901,35.230803174811
역전할머니맥주,음식,유흥주점,Q09A01,호프/맥주,부산광역시 금정구 부산대학로50번길 9,129.085939600599,35.231841636281
청춘들의불타는밤,음식,유흥주점,Q09A07,기타일반유흥주점,부산광역시 금정구 부산대학로50번길 20,129.086307614233,35.2322529682929
그놈포차,음식,유흥주점,Q09A02,소주방/포장마차,부산광역시 금정구 부산대학로50번길 14,129.08624980827298,35.2320371561624
청두마라탕포차,음식,유흥주점,Q09A02,소주방/포장마차,부산광역시 금정구 부산대학로63번길 29,129.084098435848,35.2305240993513
레몬,음식,유흥주점,Q09A01,호프/맥주,부산광역시 금정구 금정로 155,129.08772011746998,35.23848683396429
시바단란주점,음식,유흥주점,Q09A10,룸살롱/단란주점,부산광역시 금정구 금정로 59-1,129.08608988601006,35.2299293644543
텐시,음식,유흥주점,Q09A01,호프/맥주,부산광역시 금정구 금정로52번길 50,129.08881134086099,35.228886357069605
더파티룸,음식,유흥주점,Q09A08,빠/카페/스탠드빠,부산광역시 금정구 금정로60번길 29,129.087943085104,35.229678363668604
홀리데이,음식,유흥주점,Q09A01,호프/맥주,부산광역시 금정구 금정로149번길 5,129.08749283127898,35.2379210083827
투다리,음식,유흥주점,Q09A03,꼬치구이전문점,부산광역시 금정구 금정로 155-1,129.087721802154,35.2386130117026
로지,음식,유흥주점,Q09A01,호프/맥주,부산광역시 금정구 금정로52번길 47,129.088636920538,35.2289870775457
제이노래주점,음식,유흥주점,Q09A10,룸살롱/단란주점,부산광역시 금정구 금정로 155-1,129.087721802154,35.2386130117026
브라더스커피,음식,유흥주점,Q09A01,호프/맥주,부산광역시 금정구 금정로60번길 28,129.087864150771,35.2295258386707
땅콩비어,음식,유흥주점,Q09A01,호프/맥주,부산광역시 금정구 금정로 153,129.087718553129,35.2383696689192
닭집포차화계장터,음식,유흥주점,Q09A02,소주방/포장마차,부산광역시 금정구 금정로91번길 6,129.086636741322,35.233043227260794
이장포차,음식,유흥주점,Q09A02,소주방/포장마차,부산광역시 금정구 금정로68번길 30,129.08812869948,35.2304158259326
빙고노래주점,음식,유흥주점,Q09A10,룸살롱/단란주점,부산광역시 금정구 금정로 155-1,129.087721802154,35.2386130117026
혜자동,음식,유흥주점,Q09A07,기타일반유흥주점,부산광역시 금정구 금정로91번길 14-1,129.086132530502,35.2331288768384
춘자,음식,유흥주점,Q09A01,호프/맥주,부산광역시 금정구 금강로 276-8,129.085883422217,35.232572257111705
컵앤볼,음식,유흥주점,Q09A01,호프/맥주,부산광역시 금정구 금강로279번길 9,129.085100455926,35.2331741887393
티바,음식,유흥주점,Q09A01,호프/맥주,부산광역시 금정구 금강로 278,129.085644163733,35.2327546790677
배씨상회,음식,유흥주점,Q09A01,호프/맥주,부산광역시 금정구 금강로 232,129.08445937816998,35.228754162655605
카카오두,음식,유흥주점,Q09A01,호프/맥주,부산광역시 금정구 금강로 277,129.085404544016,35.2329100624317
프리존,음식,유흥주점,Q09A01,호프/맥주,부산광역시 금정구 금강로 242,129.084942610388,35.2295700876019
숯불9289,음식,유흥주점,Q09A01,호프/맥주,부산광역시 금정구 금강로 292,129.085979172489,35.2339865625461
애중국전통꼬지전문점,음식,유흥주점,Q09A03,꼬치구이전문점,부산광역시 금정구 금강로279번길 111,129.083687807114,35.2368194004771
램스영카페앤펍,음식,유흥주점,Q09A01,호프/맥주,부산광역시 금정구 금강로 253,129.08468324169,35.2307171636918
그릿,음식,유흥주점,Q09A01,호프/맥주,부산광역시 금정구 금강로 271,129.085187074642,35.2322540058079
자인단란주점,음식,유흥주점,Q09A10,룸살롱/단란주점,부산광역시 금정구 금강로 329-2,129.086355460124,35.237489547235704
아이유편의점포차,음식,유흥주점,Q09A02,소주방/포장마차,부산광역시 금정구 금강로 246,129.08501271511102,35.229884941964
오춘자비어,음식,유흥주점,Q09A01,호프/맥주,부산광역시 금정구 금강로 276-8,129.085883422217,35.232572257111705
수내닭꼬치,음식,유흥주점,Q09A03,꼬치구이전문점,부산광역시 금정구 금강로 256-6,129.085310907237,35.23082871677379
오닭꼬치,음식,유흥주점,Q09A03,꼬치구이전문점,부산광역시 금정구 금강로335번길 56,129.083373354062,35.2379579522058
긴자꼬지,음식,유흥주점,Q09A03,꼬치구이전문점,부산광역시 금정구 장전로12번길 29,129.087946850096,35.22913750242651
비온데이,음식,유흥주점,Q09A01,호프/맥주,부산광역시 금정구 장전로 54-1,129.08331827405502,35.2296837875464
봉구비어,음식,유흥주점,Q09A01,호프/맥주,부산광역시 금정구 장전로12번길 46-3,129.08855928090298,35.2297539478844
지꼬,음식,유흥주점,Q09A03,꼬치구이전문점,부산광역시 금정구 장전로12번길 31,129.087837370241,35.2291655277413
부대포차,음식,유흥주점,Q09A02,소주방/포장마차,부산광역시 금정구 장전로12번길 30,129.088110287553,35.2290368816648
