name,clasificar,middle clasificar,code,small clasificar,addr,long,lat
자스민2,음식,커피점/카페,Q12A01,커피전문점/카페/다방,부산광역시 금정구 부산대학로64번길 43,129.084697503852,35.233439200300495
산뽀,음식,커피점/카페,Q12A01,커피전문점/카페/다방,부산광역시 금정구 부산대학로64번안길 2,129.085411689793,35.2359206026603
캣츠,음식,커피점/카페,Q12A01,커피전문점/카페/다방,부산광역시 금정구 부산대학로63번길 2,129.083855791079,35.232103685788005
커피느낌,음식,커피점/카페,Q12A01,커피전문점/카페/다방,부산광역시 금정구 부산대학로 62,129.084730950995,35.231825432396796
베네,음식,커피점/카페,Q12A01,커피전문점/카페/다방,부산광역시 금정구 부산대학로63번길 2,129.083855791079,35.232103685788005
카페마운틴,음식,커피점/카페,Q12A01,커피전문점/카페/다방,부산광역시 금정구 부산대학로63번길 2,129.083855791079,35.232103685788005
스타벅스,음식,커피점/카페,Q12A01,커피전문점/카페/다방,부산광역시 금정구 부산대학로64번길 12,129.084581127286,35.2321242300263
이삭토스트,음식,커피점/카페,Q12A01,커피전문점/카페/다방,부산광역시 금정구 부산대학로 63,129.084417869164,35.231413603351
빽다방,음식,커피점/카페,Q12A01,커피전문점/카페/다방,부산광역시 금정구 부산대학로64번길 34,129.084856994117,35.233041164266794
캐릭터카페티니위니카페부산대엔씨점,음식,커피점/카페,Q12A01,커피전문점/카페/다방,부산광역시 금정구 부산대학로63번길 2,129.083855791079,35.232103685788005
커피빌리지,음식,커피점/카페,Q12A01,커피전문점/카페/다방,부산광역시 금정구 부산대학로63번길 2,129.083855791079,35.232103685788005
운죽정북카페,음식,커피점/카페,Q12A01,커피전문점/카페/다방,부산광역시 금정구 부산대학로63번길 2-1,129.07332239626,35.2364250187992
체리,음식,커피점/카페,Q12A01,커피전문점/카페/다방,부산광역시 금정구 부산대학로63번길 2,129.083855791079,35.232103685788005
노스커피북문,음식,커피점/카페,Q12A01,커피전문점/카페/다방,부산광역시 금정구 부산대학로64번길 40,129.084881483268,35.233230234315705
티니위니카페,음식,커피점/카페,Q12A01,커피전문점/카페/다방,부산광역시 금정구 부산대학로63번길 2,129.083855791079,35.232103685788005
아마스빈부산대1호점,음식,커피점/카페,Q12A01,커피전문점/카페/다방,부산광역시 금정구 부산대학로63번길 11,129.084216312742,35.231126967607295
뉘앙스사주카페,음식,커피점/카페,Q12A05,사주카페,부산광역시 금정구 부산대학로63번길 21,129.08413306731399,35.2306499822692
할리스커피,음식,커피점/카페,Q12A01,커피전문점/카페/다방,부산광역시 금정구 부산대학로63번길 2,129.083855791079,35.232103685788005
커피어웨이크,음식,커피점/카페,Q12A01,커피전문점/카페/다방,부산광역시 금정구 부산대학로63번길 46-4,129.08386952014098,35.2298320872955
CAFECCC,음식,커피점/카페,Q12A01,커피전문점/카페/다방,부산광역시 금정구 부산대학로50번길 11-8,129.08570094475598,35.23206912188579
공차,음식,커피점/카페,Q12A01,커피전문점/카페/다방,부산광역시 금정구 부산대학로63번길 2,129.083855791079,35.232103685788005
더카페,음식,커피점/카페,Q12A01,커피전문점/카페/다방,부산광역시 금정구 부산대학로63번길 2,129.083855791079,35.232103685788005
C&J,음식,커피점/카페,Q12A01,커피전문점/카페/다방,부산광역시 금정구 부산대학로50번길 22,129.08633090492202,35.2323519109264
더벤티부산대점,음식,커피점/카페,Q12A01,커피전문점/카페/다방,부산광역시 금정구 부산대학로64번길 42,129.085048173107,35.233372960755794
할리스커피,음식,커피점/카페,Q12A01,커피전문점/카페/다방,부산광역시 금정구 부산대학로 29,129.088155842901,35.230803174811
뉴욕핫도그앤커피,음식,커피점/카페,Q12A01,커피전문점/카페/다방,부산광역시 금정구 부산대학로63번길 2,129.083855791079,35.232103685788005
커피맘스,음식,커피점/카페,Q12A01,커피전문점/카페/다방,부산광역시 금정구 부산대학로64번길 43,129.084697503852,35.233439200300495
카페안집,음식,커피점/카페,Q12A01,커피전문점/카페/다방,부산광역시 금정구 부산대학로63번길 37-5,129.084388055419,35.22999870514371
번아웃커피,음식,커피점/카페,Q12A01,커피전문점/카페/다방,부산광역시 금정구 부산대학로 60-1,129.084784433492,35.231716787618
엉클김,음식,커피점/카페,Q12A01,커피전문점/카페/다방,부산광역시 금정구 부산대학로64번길 94-8,129.085888303075,35.235411555751796
커피베이,음식,커피점/카페,Q12A01,커피전문점/카페/다방,부산광역시 금정구 부산대학로63번길 2,129.083846844508,35.2322570003316
Craftbeerhouse,음식,커피점/카페,Q12A01,커피전문점/카페/다방,부산광역시 금정구 부산대학로50번길 37,129.086295857986,35.233019245699
간단하지만특별한화피디Cafe,음식,커피점/카페,Q12A01,커피전문점/카페/다방,부산광역시 금정구 부산대학로 49,129.085688936787,35.2311678506806
간단하지만특별한화피디Cafe,음식,커피점/카페,Q12A01,커피전문점/카페/다방,부산광역시 금정구 부산대학로63번길 2,129.083846844508,35.2322570003316
쿵푸밀크티,음식,커피점/카페,Q12A01,커피전문점/카페/다방,부산광역시 금정구 부산대학로63번길 22,129.08394657406,35.2306696800443
카페해뮴,음식,커피점/카페,Q12A01,커피전문점/카페/다방,부산광역시 금정구 부산대학로 29,129.088155842901,35.230803174811
도르샐러드,음식,커피점/카페,Q12A01,커피전문점/카페/다방,부산광역시 금정구 부산대학로 30-3,129.08791126555,35.231409297035704
네오,음식,커피점/카페,Q12A01,커피전문점/카페/다방,부산광역시 금정구 부산대학로 29,129.088155842901,35.230803174811
해피버드데이,음식,커피점/카페,Q12A01,커피전문점/카페/다방,부산광역시 금정구 부산대학로63번길 22,129.08394657406,35.2306696800443
번아웃커피유닛,음식,커피점/카페,Q12A01,커피전문점/카페/다방,부산광역시 금정구 부산대학로63번길 43,129.08406651612,35.2297762404193
RITUALCOFFEE,음식,커피점/카페,Q12A01,커피전문점/카페/다방,부산광역시 금정구 부산대학로 60-1,129.084784433492,35.231716787618
초심스터디카페,음식,커피점/카페,Q12A01,커피전문점/카페/다방,부산광역시 금정구 부산대학로 49,129.085688936787,35.2311678506806
하이,음식,커피점/카페,Q12A01,커피전문점/카페/다방,부산광역시 금정구 부산대학로63번길 29,129.084098435848,35.2305240993513
약속다방,음식,커피점/카페,Q12A01,커피전문점/카페/다방,부산광역시 금정구 금정로 106,129.087441104397,35.234045547296205
BOMM,음식,커피점/카페,Q12A01,커피전문점/카페/다방,부산광역시 금정구 금정로 42,129.08627852316098,35.2284223684616
이솝페이블,음식,커피점/카페,Q12A01,커피전문점/카페/다방,부산광역시 금정구 금정로60번길 16,129.087128935343,35.2295865267446
바다커피숍,음식,커피점/카페,Q12A01,커피전문점/카페/다방,부산광역시 금정구 금정로 21,129.085682383023,35.2265528473883
토즈모임센터부산대점,음식,커피점/카페,Q12A01,커피전문점/카페/다방,부산광역시 금정구 금정로 71,129.086290913862,35.2310002015706
나무그늘,음식,커피점/카페,Q12A01,커피전문점/카페/다방,부산광역시 금정구 금정로60번길 24,129.087501554196,35.2295200830825
원두커피볶는집,음식,커피점/카페,Q12A01,커피전문점/카페/다방,부산광역시 금정구 금정로 29,129.085726499992,35.2273907347099
카페헤세이티,음식,커피점/카페,Q12A01,커피전문점/카페/다방,부산광역시 금정구 금정로91번길 22,129.085813736256,35.233113709492706
Cafeon,음식,커피점/카페,Q12A01,커피전문점/카페/다방,부산광역시 금정구 금정로91번길 14,129.086186372343,35.2330472696071
빈스에스프레소,음식,커피점/카페,Q12A01,커피전문점/카페/다방,부산광역시 금정구 금정로 59-7,129.085815761575,35.2299678789269
궁금한카페,음식,커피점/카페,Q12A01,커피전문점/카페/다방,부산광역시 금정구 금정로 77,129.08643029588998,35.231566819317
카페봄,음식,커피점/카페,Q12A01,커피전문점/카페/다방,부산광역시 금정구 금정로 42,129.08627852316098,35.2284223684616
달콤커피부산대점,음식,커피점/카페,Q12A01,커피전문점/카페/다방,부산광역시 금정구 금정로60번길 20,129.087304922081,35.229602973629106
간단하지만특별한화피디Cafe봄봄장전점,음식,커피점/카페,Q12A01,커피전문점/카페/다방,부산광역시 금정구 금정로 151,129.087682107618,35.238108596901796
커피엔스타,음식,커피점/카페,Q12A01,커피전문점/카페/다방,부산광역시 금정구 금정로60번길 24,129.087501554196,35.2295200830825
헬로멜로옐로,음식,커피점/카페,Q12A01,커피전문점/카페/다방,부산광역시 금정구 금정로 46,129.08628284787702,35.2287468261962
앤커피숍,음식,커피점/카페,Q12A01,커피전문점/카페/다방,부산광역시 금정구 금정로 149,129.08767982139,35.23793735566829
엠제이커피로스터리,음식,커피점/카페,Q12A01,커피전문점/카페/다방,부산광역시 금정구 금정로 127-1,129.087489898988,35.2360551823655
자스민커피,음식,커피점/카페,Q12A01,커피전문점/카페/다방,부산광역시 금정구 금정로68번길 42,129.08869807424,35.2302754993617
달콤,음식,커피점/카페,Q12A01,커피전문점/카페/다방,부산광역시 금정구 금정로60번길 20,129.087304922081,35.229602973629106
청와삼대,음식,커피점/카페,Q12A01,커피전문점/카페/다방,부산광역시 금정구 금정로 151,129.087682107618,35.238108596901796
분홍숲,음식,커피점/카페,Q12A01,커피전문점/카페/다방,부산광역시 금정구 금정로60번길 19,129.087373352321,35.229791648520205
베러먼데이,음식,커피점/카페,Q12A01,커피전문점/카페/다방,부산광역시 금정구 금정로 63-1,129.086041330951,35.2304075310269
카페비윤,음식,커피점/카페,Q12A01,커피전문점/카페/다방,부산광역시 금정구 금정로52번길 27,129.087759158406,35.2290670789075
간단하지만특별한화피디Cafe,음식,커피점/카페,Q12A01,커피전문점/카페/다방,부산광역시 금정구 금정로52번길 27,129.087759158406,35.2290670789075
비윤,음식,커피점/카페,Q12A01,커피전문점/카페/다방,부산광역시 금정구 금정로52번길 27,129.087759158406,35.2290670789075
간단하지만특별한화피디Cafe,음식,커피점/카페,Q12A01,커피전문점/카페/다방,부산광역시 금정구 금정로91번길 22,129.085813736256,35.233113709492706
원더러스트,음식,커피점/카페,Q12A01,커피전문점/카페/다방,부산광역시 금정구 금정로 187,129.087869567693,35.241451022679
크로체,음식,커피점/카페,Q12A01,커피전문점/카페/다방,부산광역시 금정구 금정로 94,129.087261060014,35.2329024140501
헨젤과그레텔,음식,커피점/카페,Q12A01,커피전문점/카페/다방,부산광역시 금정구 금정로60번길 14,129.087141602715,35.2297126060431
팔공티,음식,커피점/카페,Q12A01,커피전문점/카페/다방,부산광역시 금정구 금정로60번길 37,129.088336949744,35.229557643743604
번아웃커피,음식,커피점/카페,Q12A01,커피전문점/카페/다방,부산광역시 금정구 금정로60번길 48,129.088958589246,35.2292185426931
화이트펜슬스터디카페,음식,커피점/카페,Q12A01,커피전문점/카페/다방,부산광역시 금정구 금정로60번길 24,129.087501554196,35.2295200830825
컵넛,음식,커피점/카페,Q12A01,커피전문점/카페/다방,부산광역시 금정구 금정로149번안길 18,129.08698995665898,35.2372855473999
카페,음식,커피점/카페,Q12A01,커피전문점/카페/다방,부산광역시 금정구 금정로 20,129.086807484009,35.2277235583279
구디너프,음식,커피점/카페,Q12A01,커피전문점/카페/다방,부산광역시 금정구 금정로52번길 21,129.087408389745,35.2291243132681
웍스커피,음식,커피점/카페,Q12A01,커피전문점/카페/다방,부산광역시 금정구 금정로 63-1,129.086041210839,35.2303985183141
105,음식,커피점/카페,Q12A01,커피전문점/카페/다방,부산광역시 금정구 금강로279번길 111,129.083687807114,35.2368194004771
화양연화,음식,커피점/카페,Q12A01,커피전문점/카페/다방,부산광역시 금정구 금강로 301-1,129.085935660019,35.2348432624975
백조,음식,커피점/카페,Q12A01,커피전문점/카페/다방,부산광역시 금정구 금강로 308,129.086374163559,35.235596485284795
카페드팽,음식,커피점/카페,Q12A01,커피전문점/카페/다방,부산광역시 금정구 금강로 247-7,129.08428169093798,35.230261057959105
두기보드게임,음식,커피점/카페,Q12A04,보드게임카페,부산광역시 금정구 금강로 265,129.085060004458,35.23178642794271
네로커피나라,음식,커피점/카페,Q12A01,커피전문점/카페/다방,부산광역시 금정구 금강로 336,129.08669042609802,35.2378921603016
컴포즈커피,음식,커피점/카페,Q12A01,커피전문점/카페/다방,부산광역시 금정구 금강로 248-10,129.085443379261,35.230052342886296
백화,음식,커피점/카페,Q12A01,커피전문점/카페/다방,부산광역시 금정구 금강로 175,129.081718743262,35.224217701989105
두커피로스터스,음식,커피점/카페,Q12A01,커피전문점/카페/다방,부산광역시 금정구 금강로321번길 66,129.082932708303,35.237042489748504
맘사랑카페,음식,커피점/카페,Q12A01,커피전문점/카페/다방,부산광역시 금정구 금강로 217,129.081919910283,35.2286146388292
체스,음식,커피점/카페,Q12A01,커피전문점/카페/다방,부산광역시 금정구 금강로 247-12,129.084196694801,35.2304781503195
오아시스커피숍,음식,커피점/카페,Q12A01,커피전문점/카페/다방,부산광역시 금정구 금강로 192-1,129.082484767876,35.225653062781205
로제커피,음식,커피점/카페,Q12A01,커피전문점/카페/다방,부산광역시 금정구 금강로335번길 40,129.084264361273,35.238040111275296
두기보드게임카페,음식,커피점/카페,Q12A01,커피전문점/카페/다방,부산광역시 금정구 금강로 265,129.085060004458,35.23178642794271
커피에반하다,음식,커피점/카페,Q12A01,커피전문점/카페/다방,부산광역시 금정구 금강로 248-9,129.085500701338,35.23023210467721
빈스에스프레소,음식,커피점/카페,Q12A01,커피전문점/카페/다방,부산광역시 금정구 금강로279번길 81-4,129.083715323792,35.235584265629996
장전커피,음식,커피점/카페,Q12A01,커피전문점/카페/다방,부산광역시 금정구 금강로369번길 17,129.085400835284,35.2408782787773
엔커피,음식,커피점/카페,Q12A01,커피전문점/카페/다방,부산광역시 금정구 금강로279번길 81-10,129.083133719838,35.2356345406289
텍스처커피,음식,커피점/카페,Q12A01,커피전문점/카페/다방,부산광역시 금정구 금강로379번길 27,129.08490965865,35.241946308258
커피갤러리,음식,커피점/카페,Q12A01,커피전문점/카페/다방,부산광역시 금정구 금강로 225,129.081920317048,35.2303002150514
컴포즈커피,음식,커피점/카페,Q12A01,커피전문점/카페/다방,부산광역시 금정구 금강로 248-8,129.085267991981,35.2300809568852
마리웨일237,음식,커피점/카페,Q12A01,커피전문점/카페/다방,부산광역시 금정구 금강로 251,129.084746268209,35.230500267892104
카페더찬,음식,커피점/카페,Q12A01,커피전문점/카페/다방,부산광역시 금정구 금강로279번길 62,129.083866310452,35.2345463282713
웬디스키친,음식,커피점/카페,Q12A01,커피전문점/카페/다방,부산광역시 금정구 금강로 279-1,129.08543941871798,35.2330539702933
커피에반하다,음식,커피점/카페,Q12A01,커피전문점/카페/다방,부산광역시 금정구 금강로 231,129.084020256371,35.2287761235532
모먼트랩,음식,커피점/카페,Q12A01,커피전문점/카페/다방,부산광역시 금정구 금강로 252-1,129.085373812115,35.2306028079654
더리터,음식,커피점/카페,Q12A01,커피전문점/카페/다방,부산광역시 금정구 금강로335번길 17,129.08554687778098,35.237821298192
릴리앤제이,음식,커피점/카페,Q12A01,커피전문점/카페/다방,부산광역시 금정구 금강로335번길 81,129.08197642730102,35.2378352413696
간단하지만특별한화피디Cafe,음식,커피점/카페,Q12A01,커피전문점/카페/다방,부산광역시 금정구 금강로194번길 4,129.08266194252198,35.2257596438988
오직그대만,음식,커피점/카페,Q12A01,커피전문점/카페/다방,부산광역시 금정구 금강로 275,129.085380774069,35.232775068766706
다짐스터디카페,음식,커피점/카페,Q12A01,커피전문점/카페/다방,부산광역시 금정구 금강로335번길 21,129.085260900924,35.2377968214424
간단하지만특별한화피디Cafe,음식,커피점/카페,Q12A01,커피전문점/카페/다방,부산광역시 금정구 금강로 361,129.086250266053,35.2403118038949
커피갤럽,음식,커피점/카페,Q12A01,커피전문점/카페/다방,부산광역시 금정구 금강로 243,129.08457358742902,35.2299069049725
싱싱프루츠,음식,커피점/카페,Q12A01,커피전문점/카페/다방,부산광역시 금정구 금강로391번길 5,129.08632000143498,35.2430693928091
카페,음식,커피점/카페,Q12A01,커피전문점/카페/다방,부산광역시 금정구 금강로335번길 10-2,129.085948113493,35.2382503602583
카페드팽,음식,커피점/카페,Q12A01,커피전문점/카페/다방,부산광역시 금정구 금강로 271-38,129.08479631171699,35.232609046297895
마음연구소,음식,커피점/카페,Q12A05,사주카페,부산광역시 금정구 금강로279번길 6,129.085321469043,35.2332713588554
나우잇,음식,커피점/카페,Q12A01,커피전문점/카페/다방,부산광역시 금정구 금강로 271-11,129.08460657516702,35.2323854018896
달다방홈베이킹,음식,커피점/카페,Q12A01,커피전문점/카페/다방,부산광역시 금정구 장전로 33,129.085269436386,35.2285395853522
아레테,음식,커피점/카페,Q12A01,커피전문점/카페/다방,부산광역시 금정구 장전로12번길 55,129.088135712383,35.2301183078655
캣스토리,음식,커피점/카페,Q12A01,커피전문점/카페/다방,부산광역시 금정구 장전로12번길 52-4,129.08860442146602,35.229843679814294
스테이히얼투데이,음식,커피점/카페,Q12A01,커피전문점/카페/다방,부산광역시 금정구 장전로20번길 27,129.08715731895398,35.2292437477715
라프,음식,커피점/카페,Q12A01,커피전문점/카페/다방,부산광역시 금정구 장전로20번길 23,129.087133667573,35.2291177671145
